[
  {
    "longitude": "-66.123858",
    "date": "Monday, August 21, 2017 2:10 AM",
    "latitude": "-33.537214",
    "amount": "-961.14",
    "company": "REALMO",
    "address": "375 Boynton Place, Zortman, District Of Columbia, 4502",
    "picture": "http://placehold.it/32x32",
    "id": "5aafdcf6cf676db89f341290"
  },
  {
    "longitude": "-12.871486",
    "date": "Thursday, September 8, 2016 12:45 AM",
    "latitude": "-32.939035",
    "amount": "-1191.40",
    "company": "AQUACINE",
    "address": "624 Pilling Street, Fruitdale, Maryland, 9742",
    "picture": "http://placehold.it/32x32",
    "id": "5aafdcf641f639853345bd94"
  },
  {
    "longitude": "100.770026",
    "date": "Wednesday, September 20, 2017 6:33 PM",
    "latitude": "-7.18639",
    "amount": "-1365.23",
    "company": "ENORMO",
    "address": "675 Highland Avenue, Moscow, Guam, 2266",
    "picture": "http://placehold.it/32x32",
    "id": "5aafdcf6138b03e6f38964d8"
  },
  {
    "longitude": "81.395976",
    "date": "Saturday, February 27, 2016 4:40 PM",
    "latitude": "29.975432",
    "amount": "2202.89",
    "company": "GADTRON",
    "address": "277 Brevoort Place, Coaldale, Mississippi, 5663",
    "picture": "http://placehold.it/32x32",
    "id": "5aafdcf67acb5c68407b3e0a"
  },
  {
    "longitude": "-16.011628",
    "date": "Friday, January 3, 2014 3:45 AM",
    "latitude": "-36.709246",
    "amount": "3552.74",
    "company": "TETAK",
    "address": "100 Blake Avenue, Lafferty, Washington, 467",
    "picture": "http://placehold.it/32x32",
    "id": "5aafdcf6f2a402c3e79e0c9b"
  },
  {
    "longitude": "-161.329454",
    "date": "Friday, January 2, 2015 12:48 AM",
    "latitude": "31.361388",
    "amount": "192.09",
    "company": "INSURITY",
    "address": "757 Quincy Street, Snyderville, Oklahoma, 930",
    "picture": "http://placehold.it/32x32",
    "id": "5aafdcf6b6517a88a0278d1a"
  },
  {
    "longitude": "-72.27694",
    "date": "Tuesday, December 1, 2015 2:06 AM",
    "latitude": "-64.04853",
    "amount": "178.15",
    "company": "KYAGURU",
    "address": "805 Humboldt Street, Libertytown, Oregon, 783",
    "picture": "http://placehold.it/32x32",
    "id": "5aafdcf6838ab7eb6403958e"
  },
  {
    "longitude": "50.60978",
    "date": "Wednesday, August 5, 2015 11:48 PM",
    "latitude": "10.016863",
    "amount": "-2807.88",
    "company": "GEEKOL",
    "address": "454 Frost Street, Gloucester, Kansas, 8280",
    "picture": "http://placehold.it/32x32",
    "id": "5aafdcf6d313d7a436e2497a"
  },
  {
    "longitude": "-179.705343",
    "date": "Friday, August 12, 2016 9:02 AM",
    "latitude": "-31.876256",
    "amount": "763.12",
    "company": "ACCUPHARM",
    "address": "577 Dare Court, Watchtower, Ohio, 2932",
    "picture": "http://placehold.it/32x32",
    "id": "5aafdcf66ec975763f609d76"
  },
  {
    "longitude": "-166.362824",
    "date": "Sunday, January 25, 2015 2:34 PM",
    "latitude": "61.624413",
    "amount": "-1462.02",
    "company": "HOPELI",
    "address": "388 Granite Street, Kiskimere, Arizona, 2148",
    "picture": "http://placehold.it/32x32",
    "id": "5aafdcf6f7a22807c7d62a1c"
  },
  {
    "longitude": "-135.61657",
    "date": "Monday, March 14, 2016 3:40 AM",
    "latitude": "-14.50781",
    "amount": "-1785.04",
    "company": "COMTREK",
    "address": "967 Delevan Street, Wacissa, Alabama, 2830",
    "picture": "http://placehold.it/32x32",
    "id": "5aafdcf61b30fd0d9812c672"
  },
  {
    "longitude": "-15.901857",
    "date": "Monday, May 11, 2015 5:53 AM",
    "latitude": "54.806044",
    "amount": "1285.78",
    "company": "ZILLACON",
    "address": "914 Glenwood Road, Kilbourne, Montana, 9908",
    "picture": "http://placehold.it/32x32",
    "id": "5aafdcf6c64ca9144f89c6e8"
  }
]
